{
"type": "FeatureCollection",
"name": "AC15-Sagalee-senior-citizen-population-polling-stations",
"crs": { "type": "name", "properties": { "name": "urn:ogc:def:crs:OGC:1.3:CRS84" } },
"features": [
{ "type": "Feature", "properties": { "fid": 1, "name": "Rachi", "polling_station_name": "Rachi", "polling_station": 19, "school": "Govt. Pry School", "polling_station_village": "Rachi", "population_above_59": 22, "population_btw_60_69": 11, "population_btw_70_79": 9, "population_btw_80_89": 2, "population_btw_90_99": 0, "population_above_99": 0 }, "geometry": { "type": "Point", "coordinates": [ 93.307442140976377, 27.232758826490628, 0.0 ] } },
{ "type": "Feature", "properties": { "fid": 2, "name": "Raik", "polling_station_name": "Leporiang", "polling_station": 18, "school": "Govt. RWD IB School", "polling_station_village": "Leporiang", "population_above_59": 16, "population_btw_60_69": 8, "population_btw_70_79": 7, "population_btw_80_89": 1, "population_btw_90_99": 0, "population_above_99": 0 }, "geometry": { "type": "Point", "coordinates": [ 93.31814060021064, 27.230714509534852, 0.0 ] } },
{ "type": "Feature", "properties": { "fid": 3, "name": "Leporiang", "polling_station_name": "Leporiang", "polling_station": 15, "school": "Govt. ME School", "polling_station_village": "Leporiang", "population_above_59": 23, "population_btw_60_69": 12, "population_btw_70_79": 9, "population_btw_80_89": 2, "population_btw_90_99": 0, "population_above_99": 0 }, "geometry": { "type": "Point", "coordinates": [ 93.339861633908114, 27.229014232924484, 0.0 ] } },
{ "type": "Feature", "properties": { "fid": 5, "name": "Bobia", "polling_station_name": "Bobia", "polling_station": 21, "school": "Govt. ME School", "polling_station_village": "Bobia", "population_above_59": 29, "population_btw_60_69": 18, "population_btw_70_79": 6, "population_btw_80_89": 4, "population_btw_90_99": 1, "population_above_99": 0 }, "geometry": { "type": "Point", "coordinates": [ 93.365074138395144, 27.188606686979924, 0.0 ] } },
{ "type": "Feature", "properties": { "fid": 6, "name": "Sango", "polling_station_name": "Sango", "polling_station": 17, "school": "Govt. IV School", "polling_station_village": "Sango", "population_above_59": 13, "population_btw_60_69": 7, "population_btw_70_79": 4, "population_btw_80_89": 2, "population_btw_90_99": 0, "population_above_99": 0 }, "geometry": { "type": "Point", "coordinates": [ 93.328499299309826, 27.269464285784295, 0.0 ] } },
{ "type": "Feature", "properties": { "fid": 7, "name": "Tabio", "polling_station_name": "Tabio", "polling_station": 16, "school": "Govt. Pry School", "polling_station_village": "Tabio", "population_above_59": 7, "population_btw_60_69": 5, "population_btw_70_79": 2, "population_btw_80_89": 0, "population_btw_90_99": 0, "population_above_99": 0 }, "geometry": { "type": "Point", "coordinates": [ 93.368191312180869, 27.251309109977988, 0.0 ] } },
{ "type": "Feature", "properties": { "fid": 12, "name": "Longte Tapo", "polling_station_name": "Longte Tapo", "polling_station": 20, "school": "Govt. ME School", "polling_station_village": "Longte Tapo", "population_above_59": 49, "population_btw_60_69": 25, "population_btw_70_79": 13, "population_btw_80_89": 10, "population_btw_90_99": 1, "population_above_99": 0 }, "geometry": { "type": "Point", "coordinates": [ 93.385076790685105, 27.215713504273786, 0.0 ] } },
{ "type": "Feature", "properties": { "fid": 14, "name": "Humd", "polling_station_name": "Humd", "polling_station": 6, "school": "Govt. ME School", "polling_station_village": "Humd", "population_above_59": 55, "population_btw_60_69": 37, "population_btw_70_79": 14, "population_btw_80_89": 3, "population_btw_90_99": 0, "population_above_99": 1 }, "geometry": { "type": "Point", "coordinates": [ 93.411424780825129, 27.221708553655546, 0.0 ] } },
{ "type": "Feature", "properties": { "fid": 20, "name": "Gai", "polling_station_name": "Upper Gai", "polling_station": 7, "school": "Govt. Pry School", "polling_station_village": "Upper Gai", "population_above_59": 23, "population_btw_60_69": 10, "population_btw_70_79": 10, "population_btw_80_89": 2, "population_btw_90_99": 1, "population_above_99": 0 }, "geometry": { "type": "Point", "coordinates": [ 93.436978843163502, 27.249841691447234, 0.0 ] } },
{ "type": "Feature", "properties": { "fid": 22, "name": "Sagalee", "polling_station_name": "Sagalee Township", "polling_station": 1, "school": "Govt. HS School", "polling_station_village": "Sagalee Township", "population_above_59": 22, "population_btw_60_69": 9, "population_btw_70_79": 13, "population_btw_80_89": 0, "population_btw_90_99": 0, "population_above_99": 0 }, "geometry": { "type": "Point", "coordinates": [ 93.490314267052554, 27.246816018491192, 0.0 ] } },
{ "type": "Feature", "properties": { "fid": 23, "name": "Khemlee", "polling_station_name": "Sagalee", "polling_station": 2, "school": "Govt. ME School", "polling_station_village": "Sagalee", "population_above_59": 39, "population_btw_60_69": 26, "population_btw_70_79": 12, "population_btw_80_89": 1, "population_btw_90_99": 0, "population_above_99": 0 }, "geometry": { "type": "Point", "coordinates": [ 93.473434412510983, 27.261086050862172, 0.0 ] } },
{ "type": "Feature", "properties": { "fid": 26, "name": "Chumbang", "polling_station_name": "Chumbang", "polling_station": 3, "school": "Govt. Pry School bldg", "polling_station_village": "Chumbang", "population_above_59": 13, "population_btw_60_69": 6, "population_btw_70_79": 4, "population_btw_80_89": 3, "population_btw_90_99": 0, "population_above_99": 0 }, "geometry": { "type": "Point", "coordinates": [ 93.48687274331111, 27.266510547807101, 0.0 ] } },
{ "type": "Feature", "properties": { "fid": 29, "name": "Tani Hapa", "polling_station_name": "Tani Hapa", "polling_station": 4, "school": "Govt. ME School", "polling_station_village": "Tani Hapa", "population_above_59": 9, "population_btw_60_69": 7, "population_btw_70_79": 2, "population_btw_80_89": 0, "population_btw_90_99": 0, "population_above_99": 0 }, "geometry": { "type": "Point", "coordinates": [ 93.512213153970322, 27.281670260511305, 0.0 ] } },
{ "type": "Feature", "properties": { "fid": 32, "name": "Apop", "polling_station_name": "Apop", "polling_station": 14, "school": "Govt. Pry School", "polling_station_village": "Apop", "population_above_59": 26, "population_btw_60_69": 15, "population_btw_70_79": 7, "population_btw_80_89": 3, "population_btw_90_99": 0, "population_above_99": 1 }, "geometry": { "type": "Point", "coordinates": [ 93.51661170447089, 27.28952609412644, 0.0 ] } },
{ "type": "Feature", "properties": { "fid": 33, "name": "Karoi", "polling_station_name": "Karoi", "polling_station": 10, "school": "Govt. ME School", "polling_station_village": "Karoi", "population_above_59": 28, "population_btw_60_69": 17, "population_btw_70_79": 7, "population_btw_80_89": 4, "population_btw_90_99": 0, "population_above_99": 0 }, "geometry": { "type": "Point", "coordinates": [ 93.481134501868269, 27.201736662485192, 0.0 ] } },
{ "type": "Feature", "properties": { "fid": 35, "name": "Nimte", "polling_station_name": "Nimte", "polling_station": 8, "school": "Govt. ME School", "polling_station_village": "Nimte", "population_above_59": 66, "population_btw_60_69": 31, "population_btw_70_79": 24, "population_btw_80_89": 9, "population_btw_90_99": 2, "population_above_99": 0 }, "geometry": { "type": "Point", "coordinates": [ 93.553325377941547, 27.232125311899477, 0.0 ] } },
{ "type": "Feature", "properties": { "fid": 40, "name": "Langfer Tinali", "polling_station_name": "Langfer Tinali", "polling_station": 9, "school": "Govt. Community School", "polling_station_village": "Longfer Tinali", "population_above_59": 32, "population_btw_60_69": 15, "population_btw_70_79": 14, "population_btw_80_89": 2, "population_btw_90_99": 1, "population_above_99": 0 }, "geometry": { "type": "Point", "coordinates": [ 93.564820346668483, 27.230922079500697, 0.0 ] } },
{ "type": "Feature", "properties": { "fid": 43, "name": "Pareng", "polling_station_name": "Pareng", "polling_station": 11, "school": "Govt. ME School", "polling_station_village": "Pareng", "population_above_59": 22, "population_btw_60_69": 15, "population_btw_70_79": 3, "population_btw_80_89": 4, "population_btw_90_99": 0, "population_above_99": 0 }, "geometry": { "type": "Point", "coordinates": [ 93.50568993679596, 27.331477458163047, 0.0 ] } },
{ "type": "Feature", "properties": { "fid": 44, "name": "Totpu", "polling_station_name": "Totpu", "polling_station": 12, "school": "Govt. IV School", "polling_station_village": "Totpu", "population_above_59": 32, "population_btw_60_69": 21, "population_btw_70_79": 8, "population_btw_80_89": 3, "population_btw_90_99": 0, "population_above_99": 0 }, "geometry": { "type": "Point", "coordinates": [ 93.529690636473475, 27.34974614197192, 0.0 ] } },
{ "type": "Feature", "properties": { "fid": 48, "name": "Seema", "polling_station_name": "Seema", "polling_station": 13, "school": "Govt. IV School", "polling_station_village": "Seema", "population_above_59": 8, "population_btw_60_69": 4, "population_btw_70_79": 3, "population_btw_80_89": 0, "population_btw_90_99": 1, "population_above_99": 0 }, "geometry": { "type": "Point", "coordinates": [ 93.471860684491801, 27.34504613987361, 0.0 ] } },
{ "type": "Feature", "properties": { "fid": 51, "name": "Laptap", "polling_station_name": "Laptap", "polling_station": 22, "school": "Govt. ME School", "polling_station_village": "Laptap", "population_above_59": 45, "population_btw_60_69": 28, "population_btw_70_79": 14, "population_btw_80_89": 3, "population_btw_90_99": 0, "population_above_99": 0 }, "geometry": { "type": "Point", "coordinates": [ 93.617728311066116, 27.205487222040425, 0.0 ] } },
{ "type": "Feature", "properties": { "fid": 55, "name": "Toru", "polling_station_name": "Toru", "polling_station": 23, "school": "Govt. Sec. School", "polling_station_village": "Toru", "population_above_59": 8, "population_btw_60_69": 6, "population_btw_70_79": 2, "population_btw_80_89": 0, "population_btw_90_99": 0, "population_above_99": 0 }, "geometry": { "type": "Point", "coordinates": [ 93.666929290632694, 27.217587830262172, 0.0 ] } },
{ "type": "Feature", "properties": { "fid": 57, "name": "Kheel", "polling_station_name": "Kheel", "polling_station": 24, "school": "Govt. IV Bldg", "polling_station_village": "Kheel", "population_above_59": 25, "population_btw_60_69": 18, "population_btw_70_79": 5, "population_btw_80_89": 2, "population_btw_90_99": 0, "population_above_99": 0 }, "geometry": { "type": "Point", "coordinates": [ 93.686872323973788, 27.215418785101349, 0.0 ] } },
{ "type": "Feature", "properties": { "fid": 59, "name": "Mepsoro", "polling_station_name": "Mepsoro", "polling_station": 25, "school": "Govt. Pry School", "polling_station_village": "Mepsoro", "population_above_59": 3, "population_btw_60_69": 2, "population_btw_70_79": 0, "population_btw_80_89": 1, "population_btw_90_99": 0, "population_above_99": 0 }, "geometry": { "type": "Point", "coordinates": [ 93.722753219944664, 27.240655892155711, 0.0 ] } },
{ "type": "Feature", "properties": { "fid": 60, "name": "Satang", "polling_station_name": "Satang", "polling_station": 26, "school": "Govt. Pry School", "polling_station_village": "Satang", "population_above_59": 3, "population_btw_60_69": 3, "population_btw_70_79": 0, "population_btw_80_89": 0, "population_btw_90_99": 0, "population_above_99": 0 }, "geometry": { "type": "Point", "coordinates": [ 93.73511200364581, 27.212235072190538, 0.0 ] } },
{ "type": "Feature", "properties": { "fid": 62, "name": "Ompuli", "polling_station_name": "Ompuli", "polling_station": 27, "school": "Govt. ME School", "polling_station_village": "Ompuli", "population_above_59": 32, "population_btw_60_69": 20, "population_btw_70_79": 9, "population_btw_80_89": 3, "population_btw_90_99": 0, "population_above_99": 0 }, "geometry": { "type": "Point", "coordinates": [ 93.671444546121649, 27.253809012575214, 0.0 ] } },
{ "type": "Feature", "properties": { "fid": 66, "name": "Dakthe", "polling_station_name": "Dakthe - Hoj", "polling_station": 28, "school": "Govt. Pry School", "polling_station_village": "Dakthe-Hoj", "population_above_59": 17, "population_btw_60_69": 15, "population_btw_70_79": 2, "population_btw_80_89": 0, "population_btw_90_99": 0, "population_above_99": 0 }, "geometry": { "type": "Point", "coordinates": [ 93.726196312554649, 27.337755757237488, 0.0 ] } },
{ "type": "Feature", "properties": { "fid": 70, "name": "Pilla", "polling_station_name": "Pilla", "polling_station": 29, "school": "Govt. ME School", "polling_station_village": "Pilla", "population_above_59": 28, "population_btw_60_69": 18, "population_btw_70_79": 10, "population_btw_80_89": 0, "population_btw_90_99": 0, "population_above_99": 0 }, "geometry": { "type": "Point", "coordinates": [ 93.546490066136471, 27.410020975496845, 0.0 ] } },
{ "type": "Feature", "properties": { "fid": 72, "name": "Sarch - Gai", "polling_station_name": "Sarch - Gai", "polling_station": 30, "school": "Govt. IV School", "polling_station_village": "Sarch-gai", "population_above_59": 22, "population_btw_60_69": 11, "population_btw_70_79": 9, "population_btw_80_89": 2, "population_btw_90_99": 0, "population_above_99": 0 }, "geometry": { "type": "Point", "coordinates": [ 93.567453644774616, 27.447970428108498, 0.0 ] } },
{ "type": "Feature", "properties": { "fid": 73, "name": "Sil Sango", "polling_station_name": "Sil Sango", "polling_station": 31, "school": "Govt. Pry School", "polling_station_village": "Silsango", "population_above_59": 37, "population_btw_60_69": 19, "population_btw_70_79": 15, "population_btw_80_89": 2, "population_btw_90_99": 1, "population_above_99": 0 }, "geometry": { "type": "Point", "coordinates": [ 93.551671832753669, 27.433801199059726, 0.0 ] } },
{ "type": "Feature", "properties": { "fid": 76, "name": "Nargang", "polling_station_name": "Nargang", "polling_station": 32, "school": "Govt. Pry School", "polling_station_village": "Sil Nargang", "population_above_59": 44, "population_btw_60_69": 30, "population_btw_70_79": 12, "population_btw_80_89": 2, "population_btw_90_99": 0, "population_above_99": 0 }, "geometry": { "type": "Point", "coordinates": [ 93.499132028264569, 27.492153452898769, 0.0 ] } },
{ "type": "Feature", "properties": { "fid": 77, "name": "Pan", "polling_station_name": "Pan", "polling_station": 33, "school": "Govt. Pry School", "polling_station_village": "Pan", "population_above_59": 39, "population_btw_60_69": 17, "population_btw_70_79": 13, "population_btw_80_89": 7, "population_btw_90_99": 1, "population_above_99": 1 }, "geometry": { "type": "Point", "coordinates": [ 93.516530644315139, 27.471178420225026, 0.0 ] } },
{ "type": "Feature", "properties": { "fid": 78, "name": "Sakiang", "polling_station_name": "Sakiang", "polling_station": 34, "school": "Govt. ME School", "polling_station_village": "Sakiang", "population_above_59": 28, "population_btw_60_69": 20, "population_btw_70_79": 8, "population_btw_80_89": 0, "population_btw_90_99": 0, "population_above_99": 0 }, "geometry": { "type": "Point", "coordinates": [ 93.53730733152625, 27.511541721871424, 0.0 ] } },
{ "type": "Feature", "properties": { "fid": 79, "name": "Mengio", "polling_station_name": "Mengio", "polling_station": 35, "school": "Govt. ME School", "polling_station_village": "Mengio", "population_above_59": 110, "population_btw_60_69": 54, "population_btw_70_79": 53, "population_btw_80_89": 3, "population_btw_90_99": 0, "population_above_99": 0 }, "geometry": { "type": "Point", "coordinates": [ 93.489059797740083, 27.530161402176365, 0.0 ] } },
{ "type": "Feature", "properties": { "fid": 80, "name": "Kullung", "polling_station_name": "Kullung", "polling_station": 36, "school": "Govt. Pry School", "polling_station_village": "Kulung", "population_above_59": 29, "population_btw_60_69": 21, "population_btw_70_79": 8, "population_btw_80_89": 0, "population_btw_90_99": 0, "population_above_99": 0 }, "geometry": { "type": "Point", "coordinates": [ 93.458316251031519, 27.534648968268499, 0.0 ] } },
{ "type": "Feature", "properties": { "fid": 87, "name": "Rach Tabio", "polling_station_name": "Rach Tabio", "polling_station": 5, "school": "Govt. Pry School", "polling_station_village": "Rach Tabio", "population_above_59": 17, "population_btw_60_69": 9, "population_btw_70_79": 8, "population_btw_80_89": 0, "population_btw_90_99": 0, "population_above_99": 0 }, "geometry": { "type": "Point", "coordinates": [ 93.514127578158806, 27.251324080227416, 0.0 ] } }
]
}
